{"type":"FeatureCollection","features":[{"type":"Feature","geometry":{"type":"Point","coordinates":[-122.486062,47.229785]},"properties":{"Name":"Oakland High School","City":"Tacoma","Address":"3319 S Adams St","State":"WA","ZIP":98409,"EducationalStage":"high school","StagesOffered":""}},{"type":"Feature","geometry":{"type":"Point","coordinates":[-122.500213,47.19053]},"properties":{"Name":"Mt. Tahoma High School","City":"Tacoma","Address":"4634 S 74th St","State":"WA","ZIP":98409,"EducationalStage":"high school"}},{"type":"Feature","geometry":{"type":"Point","coordinates":[-122.433963,47.21091]},"properties":{"Name":"Stewart Middle School","City":"Tacoma","Address":"5010 Pacific Ave","State":"WA","ZIP":98408,"EducationalStage":"middle school"}},{"type":"Feature","geometry":{"type":"Point","coordinates":[-122.374542,47.282731]},"properties":{"Name":"Northeast Tacoma Elementary","City":"Tacoma","Address":"5412 29th St NE","State":"WA","ZIP":98422,"EducationalStage":"elementary school"}},{"type":"Feature","geometry":{"type":"Point","coordinates":[-122.441973,47.178851]},"properties":{"Name":"Fern Hill Elementary","City":"Tacoma","Address":"8442 S Park Ave","State":"WA","ZIP":98444,"EducationalStage":"elementary school"}},{"type":"Feature","geometry":{"type":"Point","coordinates":[-122.442234,47.224701]},"properties":{"Name":"Lincoln High School","City":"Tacoma","Address":"701 S 37th St","State":"WA","ZIP":98418,"EducationalStage":"high school"}},{"type":"Feature","geometry":{"type":"Point","coordinates":[-122.497561,47.283401]},"properties":{"Name":"Sherman Elementary","City":"Tacoma","Address":"4415 N 38th St","State":"WA","ZIP":98407,"EducationalStage":"elementary school"}},{"type":"Feature","geometry":{"type":"Point","coordinates":[-122.459583,47.268775]},"properties":{"Name":"Annie Wright School","City":"Tacoma","Address":"827 N Tacoma Ave","State":"Wa","ZIP":98403,"EducationalStage":"multiple","StagesOffered":"p-12"}},{"type":"Feature","geometry":{"type":"Point","coordinates":[-122.532949,47.249939]},"properties":{"Name":"Saint Charles Borromeo","City":"Tacoma","Address":"7112 S 12th St","State":"WA","ZIP":98465,"EducationalStage":"multiple","StagesOffered":"p-8"}},{"type":"Feature","geometry":{"type":"Point","coordinates":[-122.493638,47.239834]},"properties":{"Name":"Foss High School","City":"Tacoma","Address":"2112 S Tyler St","State":"WA","ZIP":98405,"EducationalStage":"high school","StagesOffered":""}},{"type":"Feature","geometry":{"type":"Point","coordinates":[-122.501596,47.248672]},"properties":{"Name":"DeLong Elementary","City":"Tacoma","Address":"4901 S 14th St","State":"WA","ZIP":98405,"EducationalStage":"elementary school"}},{"type":"Feature","geometry":{"type":"Point","coordinates":[-122.445287,47.181657]},"properties":{"Name":"Baker Middle School","City":"Tacoma","Address":"8320 S I St","State":"WA","ZIP":98408,"EducationalStage":"middle school"}},{"type":"Feature","geometry":{"type":"Point","coordinates":[-122.426869,47.302932]},"properties":{"Name":"Browns Point","City":"Tacoma","Address":"1526 51st St NE","State":"WA","ZIP":98422,"EducationalStage":"elementary school"}},{"type":"Feature","geometry":{"type":"Point","coordinates":[-122.474771,47.192024]},"properties":{"Name":"Arlington Elementary","City":"Tacoma","Address":"3002 S 72nd St","State":"WA","ZIP":98409,"EducationalStage":"elementary school"}},{"type":"Feature","geometry":{"type":"Point","coordinates":[-122.505257,47.269944]},"properties":{"Name":"Downing Elementary","City":"Tacoma","Address":"2502 N Orchard St","State":"WA","ZIP":98406,"EducationalStage":"elementary school"}},{"type":"Feature","geometry":{"type":"Point","coordinates":[-122.461244,47.226471]},"properties":{"Name":"Reed Elementary","City":"Tacoma","Address":"1802 S 36th St","State":"WA","ZIP":98418,"EducationalStage":"elementary school"}},{"type":"Feature","geometry":{"type":"Point","coordinates":[-122.523731,47.251786]},"properties":{"Name":"Hunt Middle School","City":"Tacoma","Address":"6501 S 10th Street","State":"WA","ZIP":98465,"EducationalStage":"middle school"}},{"type":"Feature","geometry":{"type":"Point","coordinates":[-122.463034,47.256394]},"properties":{"Name":"Jason Lee Middle School","City":"Tacoma","Address":"602 N Sprague Ave","State":"WA","ZIP":98403,"EducationalStage":"middle school"}},{"type":"Feature","geometry":{"type":"Point","coordinates":[-122.446187,47.264829]},"properties":{"Name":"Stadium High School","City":"Tacoma","Address":"111 N E St","State":"WA","ZIP":98403,"EducationalStage":"high school"}},{"type":"Feature","geometry":{"type":"Point","coordinates":[-122.431809,47.170228]},"properties":{"Name":"Faith Lutheran School","City":"Tacoma","Address":"101 S 96th St","State":"WA","ZIP":98444,"EducationalStage":"multiple","StagesOffered":"p-8"}},{"type":"Feature","geometry":{"type":"Point","coordinates":[-122.437052,47.253067]},"properties":{"Name":"SOTA","City":"Tacoma","Address":"1102 A St","State":"WA","ZIP":98402,"EducationalStage":"high school"}},{"type":"Feature","geometry":{"type":"Point","coordinates":[-122.420887,47.209013]},"properties":{"Name":"Sheridan Elementary","City":"Tacoma","Address":"5317 McKinley Ave E","State":"WA","ZIP":98404,"EducationalStage":"elementary school"}},{"type":"Feature","geometry":{"type":"Point","coordinates":[-122.400562,47.21658]},"properties":{"Name":"Lister Elementary","City":"Tacoma","Address":"2106 E 44th St","State":"WA","ZIP":98404,"EducationalStage":"elementary school"}},{"type":"Feature","geometry":{"type":"Point","coordinates":[-122.449298,47.221798]},"properties":{"Name":"Whitman Elementary","City":"Tacoma","Address":"1120 S 39th St","State":"WA","ZIP":98418,"EducationalStage":"elementary school"}},{"type":"Feature","geometry":{"type":"Point","coordinates":[-122.413618,47.198139]},"properties":{"Name":"Boze Elementary","City":"Tacoma","Address":"1140 E 65th St","State":"WA","ZIP":98404,"EducationalStage":"elementary school"}},{"type":"Feature","geometry":{"type":"Point","coordinates":[-122.429974,47.202747]},"properties":{"Name":"Fawcett Elementary","City":"Tacoma","Address":"126 E 60th St","State":"WA","ZIP":98404,"EducationalStage":"elementary school"}},{"type":"Feature","geometry":{"type":"Point","coordinates":[-122.458391,47.211698]},"properties":{"Name":"Angelo Giadrone Middle School","City":"Tacoma","Address":"4902 S Alaska St","State":"WA","ZIP":98408,"EducationalStage":"middle school"}},{"type":"Feature","geometry":{"type":"Point","coordinates":[-122.447847,47.241446]},"properties":{"Name":"McCarver Elementary","City":"Tacoma","Address":"2111 S J St","State":"WA","ZIP":98405,"EducationalStage":"elementary school"}},{"type":"Feature","geometry":{"type":"Point","coordinates":[-122.517129,47.288553]},"properties":{"Name":"Point Defiance School","City":"Tacoma","Address":"4330 N Visscher St","State":"WA","ZIP":98407,"EducationalStage":"elementary school"}},{"type":"Feature","geometry":{"type":"Point","coordinates":[-122.53517,47.253634]},"properties":{"Name":"Geiger Montessori","City":"Tacoma","Address":"7401 S 8th St","State":"WA","ZIP":98465,"EducationalStage":"multiple","StagesOffered":"p-5"}},{"type":"Feature","geometry":{"type":"Point","coordinates":[-122.495535,47.197477]},"properties":{"Name":"Manitou Park Elementary","City":"Tacoma","Address":"4330 S 66th St","State":"WA","ZIP":98409,"EducationalStage":"elementary school"}},{"type":"Feature","geometry":{"type":"Point","coordinates":[-122.4792,47.248272]},"properties":{"Name":"Franklin Elementary","City":"Tacoma","Address":"1402 S Lawrence St","State":"WA","ZIP":98405,"EducationalStage":"elementary school"}},{"type":"Feature","geometry":{"type":"Point","coordinates":[-122.460027,47.244819]},"properties":{"Name":"Stanley Elementary","City":"Tacoma","Address":"1712 S 17th St","State":"WA","ZIP":98405,"EducationalStage":"elementary school"}},{"type":"Feature","geometry":{"type":"Point","coordinates":[-122.495496,47.261772]},"properties":{"Name":"Jefferson Elementary","City":"Tacoma","Address":"4302 N 13th St","State":"WA","ZIP":98406,"EducationalStage":"elementary school"}},{"type":"Feature","geometry":{"type":"Point","coordinates":[-122.525783,47.303426]},"properties":{"Name":"SAMi","City":"Tacoma","Address":"5502 Five Mile Dr","State":"WA","ZIP":98407,"EducationalStage":"high school"}},{"type":"Feature","geometry":{"type":"Point","coordinates":[-122.428863,47.179074]},"properties":{"Name":"Larchmont Elementary","City":"Tacoma","Address":"8601 E B St","State":"WA","ZIP":98445,"EducationalStage":"elementary school"}},{"type":"Feature","geometry":{"type":"Point","coordinates":[-122.405286,47.206249]},"properties":{"Name":"First Creek Middle School","City":"Tacoma","Address":"1801 E 56th St","State":"WA","ZIP":98404,"EducationalStage":"middle school"}},{"type":"Feature","geometry":{"type":"Point","coordinates":[-122.489849,47.272995]},"properties":{"Name":"Mason Middle School","City":"Tacoma","Address":"3901 N 28th St","State":"WA","ZIP":98407,"EducationalStage":"middle school"}},{"type":"Feature","geometry":{"type":"Point","coordinates":[-122.473613,47.203716]},"properties":{"Name":"Edison Elementary","City":"Tacoma","Address":"5830 S Pine St","State":"WA","ZIP":98409,"EducationalStage":"elementary school"}},{"type":"Feature","geometry":{"type":"Point","coordinates":[-122.451207,47.188299]},"properties":{"Name":"Birney Elementary","City":"Tacoma","Address":"1202 S 76th St","State":"WA","ZIP":98408,"EducationalStage":"elementary school"}},{"type":"Feature","geometry":{"type":"Point","coordinates":[-122.526619,47.269581]},"properties":{"Name":"Skyline Elementary","City":"Tacoma","Address":"2301 N Mildred St","State":"WA","ZIP":98406,"EducationalStage":"elementary school"}},{"type":"Feature","geometry":{"type":"Point","coordinates":[-122.401238,47.297483]},"properties":{"Name":"Meeker Middle School","City":"Tacoma","Address":"4402 Nassau Ave NE","State":"WA","ZIP":98422,"EducationalStage":"middle school"}},{"type":"Feature","geometry":{"type":"Point","coordinates":[-122.487302,47.271484]},"properties":{"Name":"Washington Elementary","City":"Tacoma","Address":"2615 N Adams St","State":"WA","ZIP":98407,"EducationalStage":"elementary school"}},{"type":"Feature","geometry":{"type":"Point","coordinates":[-122.515579,47.27988]},"properties":{"Name":"Truman Middle School","City":"Tacoma","Address":"5801 N 35th St","State":"Wa","ZIP":98407,"EducationalStage":"middle school"}},{"type":"Feature","geometry":{"type":"Point","coordinates":[-122.461169,47.25475]},"properties":{"Name":"Bryant Montessori","City":"Tacoma","Address":"717 S Grant Ave","State":"WA","ZIP":98405,"EducationalStage":"multiple","StagesOffered":"p-8"}},{"type":"Feature","geometry":{"type":"Point","coordinates":[-122.412211,47.223109]},"properties":{"Name":"Blix Elementary","City":"Tacoma","Address":"1302 E 38th St","State":"WA","ZIP":98404,"EducationalStage":"elementary school"}},{"type":"Feature","geometry":{"type":"Point","coordinates":[-122.455576,47.173797]},"properties":{"Name":"Stafford Elementary","City":"Tacoma","Address":"1615 S 92nd St","State":"WA","ZIP":98444,"EducationalStage":"elementary school"}},{"type":"Feature","geometry":{"type":"Point","coordinates":[-122.466548,47.267851]},"properties":{"Name":"Lowell Elementary","City":"Tacoma","Address":"810 N 13th St","State":"WA","ZIP":98403,"EducationalStage":"elementary school"}},{"type":"Feature","geometry":{"type":"Point","coordinates":[-122.492186,47.199026]},"properties":{"Name":"Gray Middle School","City":"Tacoma","Address":"6229 S Tyler St","State":"WA","ZIP":98409,"EducationalStage":"middle school"}},{"type":"Feature","geometry":{"type":"Point","coordinates":[-122.398742,47.294131]},"properties":{"Name":"Cresent Heights Elementary","City":"Tacoma","Address":"4110 Nassau Ave NE","State":"WA","ZIP":98422,"EducationalStage":"elementary school"}},{"type":"Feature","geometry":{"type":"Point","coordinates":[-122.505219,47.260839]},"properties":{"Name":"Wilson High School","City":"Tacoma","Address":"1202 N Orchard St","State":"WA","ZIP":98406,"EducationalStage":"high school"}},{"type":"Feature","geometry":{"type":"Point","coordinates":[-122.447836,47.210036]},"properties":{"Name":"Mann Elementary","City":"Tacoma","Address":"1002 S 52nd St","State":"WA","ZIP":98408,"EducationalStage":"elementary school"}},{"type":"Feature","geometry":{"type":"Point","coordinates":[-122.430488,47.215213]},"properties":{"Name":"Lyon Elementary","City":"Tacoma","Address":"101 E 46th St","State":"WA","ZIP":98404,"EducationalStage":"elementary school"}},{"type":"Feature","geometry":{"type":"Point","coordinates":[-122.398782,47.227568]},"properties":{"Name":"Roosevelt Elementary","City":"Tacoma","Address":"3550 E Roosevelt Ave","State":"WA","ZIP":98404,"EducationalStage":"elementary school"}}]}